{"Flight ID":"LS205","Time":"2019-11-06 16:30:00","Destination":"Amsterdam","IATA":"AMS","Lat":52.3086,"Lon":4.76389,"Country":"Netherlands","Continent":"Europe","Distance (km)":462.46,"Flight Type":"ShortHaul","Aircraft Code":"B738","Aircraft Name":"BOEING 737-800","Emissions Factor":11.5,"Emissions (kgCO2)":5318.33}
{"Flight ID":"BE738","Time":"2019-11-06 16:55:00","Destination":"Belfast City","IATA":"BHD","Lat":54.6181,"Lon":-5.8725,"Country":"United Kingdom","Continent":"Europe","Distance (km)":286.13,"Flight Type":"Domestic","Aircraft Code":"DH8D","Aircraft Name":"BOMBARDIER DASH 8 Q400","Emissions Factor":7.1,"Emissions (kgCO2)":2031.51}
{"Flight ID":"BE7606","Time":"2019-11-06 17:10:00","Destination":"Southampton","IATA":"SOU","Lat":50.9503,"Lon":-1.3568,"Country":"United Kingdom","Continent":"Europe","Distance (km)":324.85,"Flight Type":"Domestic","Aircraft Code":"JS41","Aircraft Name":"(no match)","Emissions Factor":11.1,"Emissions (kgCO2)":3605.87}
{"Flight ID":"KL1550","Time":"2019-11-06 17:15:00","Destination":"Amsterdam","IATA":"AMS","Lat":52.3086,"Lon":4.76389,"Country":"Netherlands","Continent":"Europe","Distance (km)":462.46,"Flight Type":"ShortHaul","Aircraft Code":"E170","Aircraft Name":"EMB ERJ170 (170-100)","Emissions Factor":8.9,"Emissions (kgCO2)":4115.93}
{"Flight ID":"FR9079","Time":"2019-11-06 18:05:00","Destination":"Alicante","IATA":"ALC","Lat":38.2822,"Lon":-0.55816,"Country":"Spain","Continent":"Europe","Distance (km)":1734.86,"Flight Type":"ShortHaul","Aircraft Code":"B738","Aircraft Name":"BOEING 737-800","Emissions Factor":11.5,"Emissions (kgCO2)":19950.88}
{"Flight ID":"EI3395","Time":"2019-11-06 19:00:00","Destination":"Dublin","IATA":"DUB","Lat":53.4213,"Lon":-6.27007,"Country":"Ireland","Continent":"Europe","Distance (km)":307.78,"Flight Type":"ShortHaul","Aircraft Code":"AT72","Aircraft Name":"ATR72 200\/500\/600","Emissions Factor":5.2,"Emissions (kgCO2)":1600.47}
{"Flight ID":"FR157","Time":"2019-11-06 19:25:00","Destination":"Dublin","IATA":"DUB","Lat":53.4213,"Lon":-6.27007,"Country":"Ireland","Continent":"Europe","Distance (km)":307.78,"Flight Type":"ShortHaul","Aircraft Code":"B738","Aircraft Name":"BOEING 737-800","Emissions Factor":11.5,"Emissions (kgCO2)":3539.5}
{"Flight ID":"BE740","Time":"2019-11-06 20:00:00","Destination":"Belfast City","IATA":"BHD","Lat":54.6181,"Lon":-5.8725,"Country":"United Kingdom","Continent":"Europe","Distance (km)":286.13,"Flight Type":"Domestic","Aircraft Code":"DH8D","Aircraft Name":"BOMBARDIER DASH 8 Q400","Emissions Factor":7.1,"Emissions (kgCO2)":2031.51}