{
  "Date": "2019-11-19",
  "Flights": [
    {
      "Flight ID": "LS249",
      "Time": "2019-11-19 09:15:00",
      "Airline": "Jet2.com",
      "Destination": "Fuerteventura",
      "IATA": "FUE",
      "Lat": 28.4527,
      "Lon": -13.8638,
      "Country": "Spain",
      "Continent": "Europe",
      "Distance (km)": 2995.03,
      "Flight Type": "ShortHaul",
      "Aircraft Code": "B738",
      "Aircraft Name": "BOEING 737-800",
      "Emissions Factor": 11.5,
      "Emissions (kgCO2)": 34442.82
    },
    {
      "Flight ID": "ORT390",
      "Time": "2019-11-19 09:30:00",
      "Airline": "TUI Airlines Nederland B.V.",
      "Destination": "Inverness Dalcross",
      "IATA": "INV",
      "Lat": 57.5425,
      "Lon": -4.0475,
      "Country": "United Kingdom",
      "Continent": "Europe",
      "Distance (km)": 435.25,
      "Flight Type": "Domestic",
      "Aircraft Code": "C25B",
      "Aircraft Name": "(no match)",
      "Emissions Factor": 11.1,
      "Emissions (kgCO2)": 4831.24
    },
    {
      "Flight ID": "KL1546",
      "Time": "2019-11-19 10:00:00",
      "Airline": "KLM",
      "Destination": "Amsterdam",
      "IATA": "AMS",
      "Lat": 52.3086,
      "Lon": 4.76389,
      "Country": "Netherlands",
      "Continent": "Europe",
      "Distance (km)": 462.46,
      "Flight Type": "ShortHaul",
      "Aircraft Code": "E190",
      "Aircraft Name": "EMBRAER ERJ190",
      "Emissions Factor": 10.2,
      "Emissions (kgCO2)": 4717.13
    },
    {
      "Flight ID": "BA1347",
      "Time": "2019-11-19 11:10:00",
      "Airline": "British Airways",
      "Destination": "London Heathrow",
      "IATA": "LHR",
      "Lat": 51.4706,
      "Lon": -0.46194,
      "Country": "United Kingdom",
      "Continent": "Europe",
      "Distance (km)": 278.33,
      "Flight Type": "Domestic",
      "Aircraft Code": "A319",
      "Aircraft Name": "AIRBUS A319",
      "Emissions Factor": 14.9,
      "Emissions (kgCO2)": 4147.09
    },
    {
      "Flight ID": "BE732",
      "Time": "2019-11-19 11:20:00",
      "Airline": "flybe",
      "Destination": "Belfast City",
      "IATA": "BHD",
      "Lat": 54.6181,
      "Lon": -5.8725,
      "Country": "United Kingdom",
      "Continent": "Europe",
      "Distance (km)": 286.13,
      "Flight Type": "Domestic",
      "Aircraft Code": "DH8D",
      "Aircraft Name": "BOMBARDIER DASH 8 Q400",
      "Emissions Factor": 7.1,
      "Emissions (kgCO2)": 2031.51
    },
    {
      "Flight ID": "FR2492",
      "Time": "2019-11-19 12:00:00",
      "Airline": "Ryanair",
      "Destination": "Tenerife South",
      "IATA": "TFS",
      "Lat": 28.0445,
      "Lon": -16.5725,
      "Country": "Spain",
      "Continent": "Europe",
      "Distance (km)": 3117.78,
      "Flight Type": "ShortHaul",
      "Aircraft Code": "B738",
      "Aircraft Name": "BOEING 737-800",
      "Emissions Factor": 11.5,
      "Emissions (kgCO2)": 35854.44
    },
    {
      "Flight ID": "BE7604",
      "Time": "2019-11-19 13:10:00",
      "Airline": "flybe",
      "Destination": "Southampton",
      "IATA": "SOU",
      "Lat": 50.9503,
      "Lon": -1.3568,
      "Country": "United Kingdom",
      "Continent": "Europe",
      "Distance (km)": 324.85,
      "Flight Type": "Domestic",
      "Aircraft Code": "JS41",
      "Aircraft Name": "(no match)",
      "Emissions Factor": 11.1,
      "Emissions (kgCO2)": 3605.87
    },
    {
      "Flight ID": "LS205",
      "Time": "2019-11-19 16:30:00",
      "Airline": "Jet2.com",
      "Destination": "Amsterdam",
      "IATA": "AMS",
      "Lat": 52.3086,
      "Lon": 4.76389,
      "Country": "Netherlands",
      "Continent": "Europe",
      "Distance (km)": 462.46,
      "Flight Type": "ShortHaul",
      "Aircraft Code": "B733",
      "Aircraft Name": "BOEING 737-300",
      "Emissions Factor": 11.6,
      "Emissions (kgCO2)": 5364.58
    },
    {
      "Flight ID": "BE738",
      "Time": "2019-11-19 16:55:00",
      "Airline": "flybe",
      "Destination": "Belfast City",
      "IATA": "BHD",
      "Lat": 54.6181,
      "Lon": -5.8725,
      "Country": "United Kingdom",
      "Continent": "Europe",
      "Distance (km)": 286.13,
      "Flight Type": "Domestic",
      "Aircraft Code": "DH8D",
      "Aircraft Name": "BOMBARDIER DASH 8 Q400",
      "Emissions Factor": 7.1,
      "Emissions (kgCO2)": 2031.51
    },
    {
      "Flight ID": "BE7606",
      "Time": "2019-11-19 17:10:00",
      "Airline": "flybe",
      "Destination": "Southampton",
      "IATA": "SOU",
      "Lat": 50.9503,
      "Lon": -1.3568,
      "Country": "United Kingdom",
      "Continent": "Europe",
      "Distance (km)": 324.85,
      "Flight Type": "Domestic",
      "Aircraft Code": "JS41",
      "Aircraft Name": "(no match)",
      "Emissions Factor": 11.1,
      "Emissions (kgCO2)": 3605.87
    },
    {
      "Flight ID": "KL1550",
      "Time": "2019-11-19 17:15:00",
      "Airline": "KLM",
      "Destination": "Amsterdam",
      "IATA": "AMS",
      "Lat": 52.3086,
      "Lon": 4.76389,
      "Country": "Netherlands",
      "Continent": "Europe",
      "Distance (km)": 462.46,
      "Flight Type": "ShortHaul",
      "Aircraft Code": "E170",
      "Aircraft Name": "EMB ERJ170 (170-100)",
      "Emissions Factor": 8.9,
      "Emissions (kgCO2)": 4115.93
    },
    {
      "Flight ID": "EI3395",
      "Time": "2019-11-19 19:00:00",
      "Airline": "Aer Lingus",
      "Destination": "Dublin",
      "IATA": "DUB",
      "Lat": 53.4213,
      "Lon": -6.27007,
      "Country": "Ireland",
      "Continent": "Europe",
      "Distance (km)": 307.78,
      "Flight Type": "ShortHaul",
      "Aircraft Code": "AT72",
      "Aircraft Name": "ATR72 200/500/600",
      "Emissions Factor": 5.2,
      "Emissions (kgCO2)": 1600.47
    },
    {
      "Flight ID": "FR157",
      "Time": "2019-11-19 19:25:00",
      "Airline": "Ryanair",
      "Destination": "Dublin",
      "IATA": "DUB",
      "Lat": 53.4213,
      "Lon": -6.27007,
      "Country": "Ireland",
      "Continent": "Europe",
      "Distance (km)": 307.78,
      "Flight Type": "ShortHaul",
      "Aircraft Code": "B738",
      "Aircraft Name": "BOEING 737-800",
      "Emissions Factor": 11.5,
      "Emissions (kgCO2)": 3539.5
    },
    {
      "Flight ID": "BE740",
      "Time": "2019-11-19 20:00:00",
      "Airline": "flybe",
      "Destination": "Belfast City",
      "IATA": "BHD",
      "Lat": 54.6181,
      "Lon": -5.8725,
      "Country": "United Kingdom",
      "Continent": "Europe",
      "Distance (km)": 286.13,
      "Flight Type": "Domestic",
      "Aircraft Code": "DH8D",
      "Aircraft Name": "BOMBARDIER DASH 8 Q400",
      "Emissions Factor": 7.1,
      "Emissions (kgCO2)": 2031.51
    }
  ]
}