{
  "Date": "2019-11-20",
  "Flights": [
    {
      "Flight_Number": "FR2446",
      "Time": "2019-11-20 15:20:00",
      "Airline": "Ryanair",
      "Airport_Name": "Malaga",
      "IATA": "AGP",
      "Lat": 36.6749,
      "Lon": -4.49911,
      "Country": "Spain",
      "Continent": "Europe",
      "Distance": 1924.02,
      "Flight_Type": "ShortHaul",
      "Aircraft_Code": "B738",
      "Aircraft_Name": "BOEING 737-800",
      "Emissions_Factor": 11.5,
      "Emissions": 22126.24
    },
    {
      "Flight_Number": "LS205",
      "Time": "2019-11-20 16:30:00",
      "Airline": "Jet2.com",
      "Airport_Name": "Amsterdam",
      "IATA": "AMS",
      "Lat": 52.3086,
      "Lon": 4.76389,
      "Country": "Netherlands",
      "Continent": "Europe",
      "Distance": 462.46,
      "Flight_Type": "ShortHaul",
      "Aircraft_Code": "B738",
      "Aircraft_Name": "BOEING 737-800",
      "Emissions_Factor": 11.5,
      "Emissions": 5318.33
    },
    {
      "Flight_Number": "BE738",
      "Time": "2019-11-20 16:55:00",
      "Airline": "flybe",
      "Airport_Name": "Belfast City",
      "IATA": "BHD",
      "Lat": 54.6181,
      "Lon": -5.8725,
      "Country": "United Kingdom",
      "Continent": "Europe",
      "Distance": 286.13,
      "Flight_Type": "Domestic",
      "Aircraft_Code": "DH8D",
      "Aircraft_Name": "BOMBARDIER DASH 8 Q400",
      "Emissions_Factor": 7.1,
      "Emissions": 2031.51
    },
    {
      "Flight_Number": "BE7606",
      "Time": "2019-11-20 17:10:00",
      "Airline": "flybe",
      "Airport_Name": "Southampton",
      "IATA": "SOU",
      "Lat": 50.9503,
      "Lon": -1.3568,
      "Country": "United Kingdom",
      "Continent": "Europe",
      "Distance": 324.85,
      "Flight_Type": "Domestic",
      "Aircraft_Code": "JS41",
      "Aircraft_Name": "",
      "Emissions_Factor": 11.1,
      "Emissions": 3605.87
    },
    {
      "Flight_Number": "KL1550",
      "Time": "2019-11-20 17:15:00",
      "Airline": "KLM",
      "Airport_Name": "Amsterdam",
      "IATA": "AMS",
      "Lat": 52.3086,
      "Lon": 4.76389,
      "Country": "Netherlands",
      "Continent": "Europe",
      "Distance": 462.46,
      "Flight_Type": "ShortHaul",
      "Aircraft_Code": "E170",
      "Aircraft_Name": "EMB ERJ170 (170-100)",
      "Emissions_Factor": 8.9,
      "Emissions": 4115.93
    },
    {
      "Flight_Number": "FR9079",
      "Time": "2019-11-20 18:05:00",
      "Airline": "Ryanair",
      "Airport_Name": "Alicante",
      "IATA": "ALC",
      "Lat": 38.2822,
      "Lon": -0.55816,
      "Country": "Spain",
      "Continent": "Europe",
      "Distance": 1734.86,
      "Flight_Type": "ShortHaul",
      "Aircraft_Code": "B738",
      "Aircraft_Name": "BOEING 737-800",
      "Emissions_Factor": 11.5,
      "Emissions": 19950.88
    },
    {
      "Flight_Number": "EI3395",
      "Time": "2019-11-20 19:00:00",
      "Airline": "Aer Lingus",
      "Airport_Name": "Dublin",
      "IATA": "DUB",
      "Lat": 53.4213,
      "Lon": -6.27007,
      "Country": "Ireland",
      "Continent": "Europe",
      "Distance": 307.78,
      "Flight_Type": "ShortHaul",
      "Aircraft_Code": "AT72",
      "Aircraft_Name": "ATR72 200/500/600",
      "Emissions_Factor": 5.2,
      "Emissions": 1600.47
    },
    {
      "Flight_Number": "FR157",
      "Time": "2019-11-20 19:25:00",
      "Airline": "Ryanair",
      "Airport_Name": "Dublin",
      "IATA": "DUB",
      "Lat": 53.4213,
      "Lon": -6.27007,
      "Country": "Ireland",
      "Continent": "Europe",
      "Distance": 307.78,
      "Flight_Type": "ShortHaul",
      "Aircraft_Code": "B738",
      "Aircraft_Name": "BOEING 737-800",
      "Emissions_Factor": 11.5,
      "Emissions": 3539.5
    },
    {
      "Flight_Number": "BE740",
      "Time": "2019-11-20 20:00:00",
      "Airline": "flybe",
      "Airport_Name": "Belfast City",
      "IATA": "BHD",
      "Lat": 54.6181,
      "Lon": -5.8725,
      "Country": "United Kingdom",
      "Continent": "Europe",
      "Distance": 286.13,
      "Flight_Type": "Domestic",
      "Aircraft_Code": "DH8D",
      "Aircraft_Name": "BOMBARDIER DASH 8 Q400",
      "Emissions_Factor": 7.1,
      "Emissions": 2031.51
    }
  ]
}