{
  "Date": "2019-11-21",
  "Flights": [
    {
      "Flight_Number": "EI3391",
      "Time": "2019-11-21 08:25:00",
      "Airline": "Aer Lingus",
      "Airport_Name": "Dublin",
      "IATA": "DUB",
      "Lat": 53.4213,
      "Lon": -6.27007,
      "Country": "Ireland",
      "Continent": "Europe",
      "Distance": 307.78,
      "Flight_Type": "ShortHaul",
      "Aircraft_Code": "AT72",
      "Aircraft_Name": "ATR72 200/500/600",
      "Emissions_Factor": 5.2,
      "Emissions": 1600.47
    },
    {
      "Flight_Number": "LS217",
      "Time": "2019-11-21 09:00:00",
      "Airline": "Jet2.com",
      "Airport_Name": "Arrecife",
      "IATA": "ACE",
      "Lat": 28.9455,
      "Lon": -13.6052,
      "Country": "Spain",
      "Continent": "Europe",
      "Distance": 2935.41,
      "Flight_Type": "ShortHaul",
      "Aircraft_Code": "B752",
      "Aircraft_Name": "BOEING 757-200",
      "Emissions_Factor": 14.7,
      "Emissions": 43150.51
    },
    {
      "Flight_Number": "LS231",
      "Time": "2019-11-21 09:00:00",
      "Airline": "Jet2.com",
      "Airport_Name": "Barcelona El Prat",
      "IATA": "BCN",
      "Lat": 41.2971,
      "Lon": 2.07846,
      "Country": "Spain",
      "Continent": "Europe",
      "Distance": 1424.93,
      "Flight_Type": "ShortHaul",
      "Aircraft_Code": "B733",
      "Aircraft_Name": "BOEING 737-300",
      "Emissions_Factor": 11.6,
      "Emissions": 16529.21
    },
    {
      "Flight_Number": "LS477",
      "Time": "2019-11-21 09:00:00",
      "Airline": "Jet2.com",
      "Airport_Name": "Las Palmas",
      "IATA": "LPA",
      "Lat": 27.9319,
      "Lon": -15.3866,
      "Country": "Spain",
      "Continent": "Europe",
      "Distance": 3093.42,
      "Flight_Type": "ShortHaul",
      "Aircraft_Code": "B738",
      "Aircraft_Name": "BOEING 737-800",
      "Emissions_Factor": 11.5,
      "Emissions": 35574.31
    },
    {
      "Flight_Number": "FR2332",
      "Time": "2019-11-21 09:30:00",
      "Airline": "Ryanair",
      "Airport_Name": "Krakow",
      "IATA": "KRK",
      "Lat": 50.0777,
      "Lon": 19.7848,
      "Country": "Poland",
      "Continent": "Europe",
      "Distance": 1521.58,
      "Flight_Type": "ShortHaul",
      "Aircraft_Code": "B738",
      "Aircraft_Name": "BOEING 737-800",
      "Emissions_Factor": 11.5,
      "Emissions": 17498.21
    },
    {
      "Flight_Number": "KL1546",
      "Time": "2019-11-21 10:00:00",
      "Airline": "KLM",
      "Airport_Name": "Amsterdam",
      "IATA": "AMS",
      "Lat": 52.3086,
      "Lon": 4.76389,
      "Country": "Netherlands",
      "Continent": "Europe",
      "Distance": 462.46,
      "Flight_Type": "ShortHaul",
      "Aircraft_Code": "E190",
      "Aircraft_Name": "EMBRAER ERJ190",
      "Emissions_Factor": 10.2,
      "Emissions": 4717.13
    },
    {
      "Flight_Number": "LS271",
      "Time": "2019-11-21 10:50:00",
      "Airline": "Jet2.com",
      "Airport_Name": "Alicante",
      "IATA": "ALC",
      "Lat": 38.2822,
      "Lon": -0.55816,
      "Country": "Spain",
      "Continent": "Europe",
      "Distance": 1734.86,
      "Flight_Type": "ShortHaul",
      "Aircraft_Code": "B738",
      "Aircraft_Name": "BOEING 737-800",
      "Emissions_Factor": 11.5,
      "Emissions": 19950.88
    },
    {
      "Flight_Number": "BA1347",
      "Time": "2019-11-21 11:10:00",
      "Airline": "British Airways",
      "Airport_Name": "London Heathrow",
      "IATA": "LHR",
      "Lat": 51.4706,
      "Lon": -0.46194,
      "Country": "United Kingdom",
      "Continent": "Europe",
      "Distance": 278.33,
      "Flight_Type": "Domestic",
      "Aircraft_Code": "A319",
      "Aircraft_Name": "AIRBUS A319",
      "Emissions_Factor": 14.9,
      "Emissions": 4147.09
    },
    {
      "Flight_Number": "BE732",
      "Time": "2019-11-21 11:20:00",
      "Airline": "flybe",
      "Airport_Name": "Belfast City",
      "IATA": "BHD",
      "Lat": 54.6181,
      "Lon": -5.8725,
      "Country": "United Kingdom",
      "Continent": "Europe",
      "Distance": 286.13,
      "Flight_Type": "Domestic",
      "Aircraft_Code": "DH8D",
      "Aircraft_Name": "BOMBARDIER DASH 8 Q400",
      "Emissions_Factor": 7.1,
      "Emissions": 2031.51
    },
    {
      "Flight_Number": "BE7604",
      "Time": "2019-11-21 13:10:00",
      "Airline": "flybe",
      "Airport_Name": "Southampton",
      "IATA": "SOU",
      "Lat": 50.9503,
      "Lon": -1.3568,
      "Country": "United Kingdom",
      "Continent": "Europe",
      "Distance": 324.85,
      "Flight_Type": "Domestic",
      "Aircraft_Code": "JS41",
      "Aircraft_Name": "",
      "Emissions_Factor": 11.1,
      "Emissions": 3605.87
    },
    {
      "Flight_Number": "BE736",
      "Time": "2019-11-21 13:35:00",
      "Airline": "flybe",
      "Airport_Name": "Belfast City",
      "IATA": "BHD",
      "Lat": 54.6181,
      "Lon": -5.8725,
      "Country": "United Kingdom",
      "Continent": "Europe",
      "Distance": 286.13,
      "Flight_Type": "Domestic",
      "Aircraft_Code": "DH8D",
      "Aircraft_Name": "BOMBARDIER DASH 8 Q400",
      "Emissions_Factor": 7.1,
      "Emissions": 2031.51
    },
    {
      "Flight_Number": "LS315",
      "Time": "2019-11-21 13:45:00",
      "Airline": "Jet2.com",
      "Airport_Name": "Paris Cdg",
      "IATA": "CDG",
      "Lat": 49.0128,
      "Lon": 2.55,
      "Country": "France",
      "Continent": "Europe",
      "Distance": 613.25,
      "Flight_Type": "ShortHaul",
      "Aircraft_Code": "B733",
      "Aircraft_Name": "BOEING 737-300",
      "Emissions_Factor": 11.6,
      "Emissions": 7113.65
    },
    {
      "Flight_Number": "FR2482",
      "Time": "2019-11-21 16:00:00",
      "Airline": "Ryanair",
      "Airport_Name": "Riga",
      "IATA": "RIX",
      "Lat": 56.9236,
      "Lon": 23.9711,
      "Country": "Latvia",
      "Continent": "Europe",
      "Distance": 1643.6,
      "Flight_Type": "ShortHaul",
      "Aircraft_Code": "B738",
      "Aircraft_Name": "BOEING 737-800",
      "Emissions_Factor": 11.5,
      "Emissions": 18901.34
    },
    {
      "Flight_Number": "LS205",
      "Time": "2019-11-21 16:30:00",
      "Airline": "Jet2.com",
      "Airport_Name": "Amsterdam",
      "IATA": "AMS",
      "Lat": 52.3086,
      "Lon": 4.76389,
      "Country": "Netherlands",
      "Continent": "Europe",
      "Distance": 462.46,
      "Flight_Type": "ShortHaul",
      "Aircraft_Code": "B738",
      "Aircraft_Name": "BOEING 737-800",
      "Emissions_Factor": 11.5,
      "Emissions": 5318.33
    },
    {
      "Flight_Number": "BE738",
      "Time": "2019-11-21 16:55:00",
      "Airline": "flybe",
      "Airport_Name": "Belfast City",
      "IATA": "BHD",
      "Lat": 54.6181,
      "Lon": -5.8725,
      "Country": "United Kingdom",
      "Continent": "Europe",
      "Distance": 286.13,
      "Flight_Type": "Domestic",
      "Aircraft_Code": "DH8D",
      "Aircraft_Name": "BOMBARDIER DASH 8 Q400",
      "Emissions_Factor": 7.1,
      "Emissions": 2031.51
    },
    {
      "Flight_Number": "BE7606",
      "Time": "2019-11-21 17:10:00",
      "Airline": "flybe",
      "Airport_Name": "Southampton",
      "IATA": "SOU",
      "Lat": 50.9503,
      "Lon": -1.3568,
      "Country": "United Kingdom",
      "Continent": "Europe",
      "Distance": 324.85,
      "Flight_Type": "Domestic",
      "Aircraft_Code": "JS41",
      "Aircraft_Name": "",
      "Emissions_Factor": 11.1,
      "Emissions": 3605.87
    },
    {
      "Flight_Number": "KL1550",
      "Time": "2019-11-21 17:15:00",
      "Airline": "KLM",
      "Airport_Name": "Amsterdam",
      "IATA": "AMS",
      "Lat": 52.3086,
      "Lon": 4.76389,
      "Country": "Netherlands",
      "Continent": "Europe",
      "Distance": 462.46,
      "Flight_Type": "ShortHaul",
      "Aircraft_Code": "E170",
      "Aircraft_Name": "EMB ERJ170 (170-100)",
      "Emissions_Factor": 8.9,
      "Emissions": 4115.93
    },
    {
      "Flight_Number": "FR9079",
      "Time": "2019-11-21 17:40:00",
      "Airline": "Ryanair",
      "Airport_Name": "Alicante",
      "IATA": "ALC",
      "Lat": 38.2822,
      "Lon": -0.55816,
      "Country": "Spain",
      "Continent": "Europe",
      "Distance": 1734.86,
      "Flight_Type": "ShortHaul",
      "Aircraft_Code": "B738",
      "Aircraft_Name": "BOEING 737-800",
      "Emissions_Factor": 11.5,
      "Emissions": 19950.88
    },
    {
      "Flight_Number": "BA1345",
      "Time": "2019-11-21 18:05:00",
      "Airline": "British Airways",
      "Airport_Name": "London Heathrow",
      "IATA": "LHR",
      "Lat": 51.4706,
      "Lon": -0.46194,
      "Country": "United Kingdom",
      "Continent": "Europe",
      "Distance": 278.33,
      "Flight_Type": "Domestic",
      "Aircraft_Code": "A319",
      "Aircraft_Name": "AIRBUS A319",
      "Emissions_Factor": 14.9,
      "Emissions": 4147.09
    },
    {
      "Flight_Number": "EI3395",
      "Time": "2019-11-21 19:00:00",
      "Airline": "Aer Lingus",
      "Airport_Name": "Dublin",
      "IATA": "DUB",
      "Lat": 53.4213,
      "Lon": -6.27007,
      "Country": "Ireland",
      "Continent": "Europe",
      "Distance": 307.78,
      "Flight_Type": "ShortHaul",
      "Aircraft_Code": "AT72",
      "Aircraft_Name": "ATR72 200/500/600",
      "Emissions_Factor": 5.2,
      "Emissions": 1600.47
    },
    {
      "Flight_Number": "FR157",
      "Time": "2019-11-21 19:25:00",
      "Airline": "Ryanair",
      "Airport_Name": "Dublin",
      "IATA": "DUB",
      "Lat": 53.4213,
      "Lon": -6.27007,
      "Country": "Ireland",
      "Continent": "Europe",
      "Distance": 307.78,
      "Flight_Type": "ShortHaul",
      "Aircraft_Code": "B738",
      "Aircraft_Name": "BOEING 737-800",
      "Emissions_Factor": 11.5,
      "Emissions": 3539.5
    },
    {
      "Flight_Number": "BE740",
      "Time": "2019-11-21 20:00:00",
      "Airline": "flybe",
      "Airport_Name": "Belfast City",
      "IATA": "BHD",
      "Lat": 54.6181,
      "Lon": -5.8725,
      "Country": "United Kingdom",
      "Continent": "Europe",
      "Distance": 286.13,
      "Flight_Type": "Domestic",
      "Aircraft_Code": "DH8D",
      "Aircraft_Name": "BOMBARDIER DASH 8 Q400",
      "Emissions_Factor": 7.1,
      "Emissions": 2031.51
    }
  ]
}