{
  "Date": "2019-11-27",
  "Flights": [
    {
      "Flight_Number": "KL1540",
      "Time": "2019-11-27 06:10:00",
      "Airline": "KLM",
      "Airport_Name": "Amsterdam",
      "IATA": "AMS",
      "Lat": 52.3086,
      "Lon": 4.76389,
      "Country": "Netherlands",
      "Continent": "Europe",
      "Distance": 462.46,
      "Flight_Type": "ShortHaul",
      "Aircraft_Code": "E190",
      "Aircraft_Name": "EMBRAER ERJ190",
      "Emissions_Factor": 10.2,
      "Emissions": 4717.13
    },
    {
      "Flight_Number": "FR153",
      "Time": "2019-11-27 06:30:00",
      "Airline": "Ryanair",
      "Airport_Name": "Dublin",
      "IATA": "DUB",
      "Lat": 53.4213,
      "Lon": -6.27007,
      "Country": "Ireland",
      "Continent": "Europe",
      "Distance": 307.78,
      "Flight_Type": "ShortHaul",
      "Aircraft_Code": "B738",
      "Aircraft_Name": "BOEING 737-800",
      "Emissions_Factor": 11.5,
      "Emissions": 3539.5
    },
    {
      "Flight_Number": "BE7600",
      "Time": "2019-11-27 06:50:00",
      "Airline": "flybe",
      "Airport_Name": "Southampton",
      "IATA": "SOU",
      "Lat": 50.9503,
      "Lon": -1.3568,
      "Country": "United Kingdom",
      "Continent": "Europe",
      "Distance": 324.85,
      "Flight_Type": "Domestic",
      "Aircraft_Code": "JS41",
      "Aircraft_Name": "",
      "Emissions_Factor": 11.1,
      "Emissions": 3605.87
    },
    {
      "Flight_Number": "FR2448",
      "Time": "2019-11-27 07:00:00",
      "Airline": "Ryanair",
      "Airport_Name": "Malta",
      "IATA": "MLA",
      "Lat": 35.8575,
      "Lon": 14.4775,
      "Country": "Malta",
      "Continent": "Europe",
      "Distance": 2359.89,
      "Flight_Type": "ShortHaul",
      "Aircraft_Code": "B738",
      "Aircraft_Name": "BOEING 737-800",
      "Emissions_Factor": 11.5,
      "Emissions": 27138.72
    },
    {
      "Flight_Number": "BE730",
      "Time": "2019-11-27 08:05:00",
      "Airline": "flybe",
      "Airport_Name": "Belfast City",
      "IATA": "BHD",
      "Lat": 54.6181,
      "Lon": -5.8725,
      "Country": "United Kingdom",
      "Continent": "Europe",
      "Distance": 286.13,
      "Flight_Type": "Domestic",
      "Aircraft_Code": "DH8D",
      "Aircraft_Name": "BOMBARDIER DASH 8 Q400",
      "Emissions_Factor": 7.1,
      "Emissions": 2031.51
    },
    {
      "Flight_Number": "EI3391",
      "Time": "2019-11-27 08:25:00",
      "Airline": "Aer Lingus",
      "Airport_Name": "Dublin",
      "IATA": "DUB",
      "Lat": 53.4213,
      "Lon": -6.27007,
      "Country": "Ireland",
      "Continent": "Europe",
      "Distance": 307.78,
      "Flight_Type": "ShortHaul",
      "Aircraft_Code": "AT72",
      "Aircraft_Name": "ATR72 200/500/600",
      "Emissions_Factor": 5.2,
      "Emissions": 1600.47
    },
    {
      "Flight_Number": "LS223",
      "Time": "2019-11-27 09:00:00",
      "Airline": "Jet2.com",
      "Airport_Name": "Tenerife South",
      "IATA": "TFS",
      "Lat": 28.0445,
      "Lon": -16.5725,
      "Country": "Spain",
      "Continent": "Europe",
      "Distance": 3117.78,
      "Flight_Type": "ShortHaul",
      "Aircraft_Code": "B738",
      "Aircraft_Name": "BOEING 737-800",
      "Emissions_Factor": 11.5,
      "Emissions": 35854.44
    },
    {
      "Flight_Number": "FR2203",
      "Time": "2019-11-27 09:30:00",
      "Airline": "Ryanair",
      "Airport_Name": "Warsaw Modlin",
      "IATA": "WMI",
      "Lat": 52.4511,
      "Lon": 20.6518,
      "Country": "Poland",
      "Continent": "Europe",
      "Distance": 1489.67,
      "Flight_Type": "ShortHaul",
      "Aircraft_Code": "B738",
      "Aircraft_Name": "BOEING 737-800",
      "Emissions_Factor": 11.5,
      "Emissions": 17131.25
    },
    {
      "Flight_Number": "KL1546",
      "Time": "2019-11-27 10:00:00",
      "Airline": "KLM",
      "Airport_Name": "Amsterdam",
      "IATA": "AMS",
      "Lat": 52.3086,
      "Lon": 4.76389,
      "Country": "Netherlands",
      "Continent": "Europe",
      "Distance": 462.46,
      "Flight_Type": "ShortHaul",
      "Aircraft_Code": "E190",
      "Aircraft_Name": "EMBRAER ERJ190",
      "Emissions_Factor": 10.2,
      "Emissions": 4717.13
    },
    {
      "Flight_Number": "BA1347",
      "Time": "2019-11-27 11:10:00",
      "Airline": "British Airways",
      "Airport_Name": "London Heathrow",
      "IATA": "LHR",
      "Lat": 51.4706,
      "Lon": -0.46194,
      "Country": "United Kingdom",
      "Continent": "Europe",
      "Distance": 278.33,
      "Flight_Type": "Domestic",
      "Aircraft_Code": "A319",
      "Aircraft_Name": "AIRBUS A319",
      "Emissions_Factor": 14.9,
      "Emissions": 4147.09
    },
    {
      "Flight_Number": "BE732",
      "Time": "2019-11-27 11:20:00",
      "Airline": "flybe",
      "Airport_Name": "Belfast City",
      "IATA": "BHD",
      "Lat": 54.6181,
      "Lon": -5.8725,
      "Country": "United Kingdom",
      "Continent": "Europe",
      "Distance": 286.13,
      "Flight_Type": "Domestic",
      "Aircraft_Code": "DH8D",
      "Aircraft_Name": "BOMBARDIER DASH 8 Q400",
      "Emissions_Factor": 7.1,
      "Emissions": 2031.51
    },
    {
      "Flight_Number": "BE7604",
      "Time": "2019-11-27 13:10:00",
      "Airline": "flybe",
      "Airport_Name": "Southampton",
      "IATA": "SOU",
      "Lat": 50.9503,
      "Lon": -1.3568,
      "Country": "United Kingdom",
      "Continent": "Europe",
      "Distance": 324.85,
      "Flight_Type": "Domestic",
      "Aircraft_Code": "JS41",
      "Aircraft_Name": "",
      "Emissions_Factor": 11.1,
      "Emissions": 3605.87
    },
    {
      "Flight_Number": "BE736",
      "Time": "2019-11-27 13:35:00",
      "Airline": "flybe",
      "Airport_Name": "Belfast City",
      "IATA": "BHD",
      "Lat": 54.6181,
      "Lon": -5.8725,
      "Country": "United Kingdom",
      "Continent": "Europe",
      "Distance": 286.13,
      "Flight_Type": "Domestic",
      "Aircraft_Code": "DH8D",
      "Aircraft_Name": "BOMBARDIER DASH 8 Q400",
      "Emissions_Factor": 7.1,
      "Emissions": 2031.51
    },
    {
      "Flight_Number": "FR2446",
      "Time": "2019-11-27 15:20:00",
      "Airline": "Ryanair",
      "Airport_Name": "Malaga",
      "IATA": "AGP",
      "Lat": 36.6749,
      "Lon": -4.49911,
      "Country": "Spain",
      "Continent": "Europe",
      "Distance": 1924.02,
      "Flight_Type": "ShortHaul",
      "Aircraft_Code": "B738",
      "Aircraft_Name": "BOEING 737-800",
      "Emissions_Factor": 11.5,
      "Emissions": 22126.24
    },
    {
      "Flight_Number": "LS205",
      "Time": "2019-11-27 16:30:00",
      "Airline": "Jet2.com",
      "Airport_Name": "Amsterdam",
      "IATA": "AMS",
      "Lat": 52.3086,
      "Lon": 4.76389,
      "Country": "Netherlands",
      "Continent": "Europe",
      "Distance": 462.46,
      "Flight_Type": "ShortHaul",
      "Aircraft_Code": "B733",
      "Aircraft_Name": "BOEING 737-300",
      "Emissions_Factor": 11.6,
      "Emissions": 5364.58
    },
    {
      "Flight_Number": "BE738",
      "Time": "2019-11-27 16:55:00",
      "Airline": "flybe",
      "Airport_Name": "Belfast City",
      "IATA": "BHD",
      "Lat": 54.6181,
      "Lon": -5.8725,
      "Country": "United Kingdom",
      "Continent": "Europe",
      "Distance": 286.13,
      "Flight_Type": "Domestic",
      "Aircraft_Code": "DH8D",
      "Aircraft_Name": "BOMBARDIER DASH 8 Q400",
      "Emissions_Factor": 7.1,
      "Emissions": 2031.51
    },
    {
      "Flight_Number": "BE7606",
      "Time": "2019-11-27 17:10:00",
      "Airline": "flybe",
      "Airport_Name": "Southampton",
      "IATA": "SOU",
      "Lat": 50.9503,
      "Lon": -1.3568,
      "Country": "United Kingdom",
      "Continent": "Europe",
      "Distance": 324.85,
      "Flight_Type": "Domestic",
      "Aircraft_Code": "JS41",
      "Aircraft_Name": "",
      "Emissions_Factor": 11.1,
      "Emissions": 3605.87
    },
    {
      "Flight_Number": "KL1550",
      "Time": "2019-11-27 17:15:00",
      "Airline": "KLM",
      "Airport_Name": "Amsterdam",
      "IATA": "AMS",
      "Lat": 52.3086,
      "Lon": 4.76389,
      "Country": "Netherlands",
      "Continent": "Europe",
      "Distance": 462.46,
      "Flight_Type": "ShortHaul",
      "Aircraft_Code": "E190",
      "Aircraft_Name": "EMBRAER ERJ190",
      "Emissions_Factor": 10.2,
      "Emissions": 4717.13
    },
    {
      "Flight_Number": "FR9079",
      "Time": "2019-11-27 18:05:00",
      "Airline": "Ryanair",
      "Airport_Name": "Alicante",
      "IATA": "ALC",
      "Lat": 38.2822,
      "Lon": -0.55816,
      "Country": "Spain",
      "Continent": "Europe",
      "Distance": 1734.86,
      "Flight_Type": "ShortHaul",
      "Aircraft_Code": "B738",
      "Aircraft_Name": "BOEING 737-800",
      "Emissions_Factor": 11.5,
      "Emissions": 19950.88
    },
    {
      "Flight_Number": "EI3395",
      "Time": "2019-11-27 19:00:00",
      "Airline": "Aer Lingus",
      "Airport_Name": "Dublin",
      "IATA": "DUB",
      "Lat": 53.4213,
      "Lon": -6.27007,
      "Country": "Ireland",
      "Continent": "Europe",
      "Distance": 307.78,
      "Flight_Type": "ShortHaul",
      "Aircraft_Code": "AT72",
      "Aircraft_Name": "ATR72 200/500/600",
      "Emissions_Factor": 5.2,
      "Emissions": 1600.47
    },
    {
      "Flight_Number": "FR157",
      "Time": "2019-11-27 19:25:00",
      "Airline": "Ryanair",
      "Airport_Name": "Dublin",
      "IATA": "DUB",
      "Lat": 53.4213,
      "Lon": -6.27007,
      "Country": "Ireland",
      "Continent": "Europe",
      "Distance": 307.78,
      "Flight_Type": "ShortHaul",
      "Aircraft_Code": "B738",
      "Aircraft_Name": "BOEING 737-800",
      "Emissions_Factor": 11.5,
      "Emissions": 3539.5
    },
    {
      "Flight_Number": "BE740",
      "Time": "2019-11-27 20:00:00",
      "Airline": "flybe",
      "Airport_Name": "Belfast City",
      "IATA": "BHD",
      "Lat": 54.6181,
      "Lon": -5.8725,
      "Country": "United Kingdom",
      "Continent": "Europe",
      "Distance": 286.13,
      "Flight_Type": "Domestic",
      "Aircraft_Code": "DH8D",
      "Aircraft_Name": "BOMBARDIER DASH 8 Q400",
      "Emissions_Factor": 7.1,
      "Emissions": 2031.51
    }
  ]
}