{
  "Date": "2019-12-04",
  "Airport": {
    "Name": "Leeds Bradford",
    "IATA": "LBA"
  },
  "Flights": [
    {
      "FlightNumber": "KL1540",
      "DateTime": "2019-12-04 06:10:00",
      "Airline": "KLM",
      "Destination": "Amsterdam",
      "IATA": "AMS",
      "Lat": 52.3086,
      "Lon": 4.76389,
      "Country": "Netherlands",
      "Continent": "Europe",
      "Distance": 462.46,
      "Flight_Type": "ShortHaul",
      "Aircraft_Code": "E170",
      "Aircraft_Name": "EMB ERJ170 (170-100)",
      "Emissions_Factor": 8.9,
      "Emissions": 4115.93
    },
    {
      "FlightNumber": "FR153",
      "DateTime": "2019-12-04 06:30:00",
      "Airline": "Ryanair",
      "Destination": "Dublin",
      "IATA": "DUB",
      "Lat": 53.4213,
      "Lon": -6.27007,
      "Country": "Ireland",
      "Continent": "Europe",
      "Distance": 307.78,
      "Flight_Type": "ShortHaul",
      "Aircraft_Code": "B738",
      "Aircraft_Name": "BOEING 737-800",
      "Emissions_Factor": 11.5,
      "Emissions": 3539.5
    },
    {
      "FlightNumber": "BE7600",
      "DateTime": "2019-12-04 06:50:00",
      "Airline": "flybe",
      "Destination": "Southampton",
      "IATA": "SOU",
      "Lat": 50.9503,
      "Lon": -1.3568,
      "Country": "United Kingdom",
      "Continent": "Europe",
      "Distance": 324.85,
      "Flight_Type": "Domestic",
      "Aircraft_Code": "JS41",
      "Aircraft_Name": "",
      "Emissions_Factor": 11.1,
      "Emissions": 3605.87
    },
    {
      "FlightNumber": "FR2448",
      "DateTime": "2019-12-04 07:00:00",
      "Airline": "Ryanair",
      "Destination": "Malta",
      "IATA": "MLA",
      "Lat": 35.8575,
      "Lon": 14.4775,
      "Country": "Malta",
      "Continent": "Europe",
      "Distance": 2359.89,
      "Flight_Type": "ShortHaul",
      "Aircraft_Code": "B738",
      "Aircraft_Name": "BOEING 737-800",
      "Emissions_Factor": 11.5,
      "Emissions": 27138.72
    },
    {
      "FlightNumber": "BE730",
      "DateTime": "2019-12-04 08:05:00",
      "Airline": "flybe",
      "Destination": "Belfast City",
      "IATA": "BHD",
      "Lat": 54.6181,
      "Lon": -5.8725,
      "Country": "United Kingdom",
      "Continent": "Europe",
      "Distance": 286.13,
      "Flight_Type": "Domestic",
      "Aircraft_Code": "DH8D",
      "Aircraft_Name": "BOMBARDIER DASH 8 Q400",
      "Emissions_Factor": 7.1,
      "Emissions": 2031.51
    },
    {
      "FlightNumber": "EI3391",
      "DateTime": "2019-12-04 08:25:00",
      "Airline": "Aer Lingus",
      "Destination": "Dublin",
      "IATA": "DUB",
      "Lat": 53.4213,
      "Lon": -6.27007,
      "Country": "Ireland",
      "Continent": "Europe",
      "Distance": 307.78,
      "Flight_Type": "ShortHaul",
      "Aircraft_Code": "AT72",
      "Aircraft_Name": "ATR72 200/500/600",
      "Emissions_Factor": 5.2,
      "Emissions": 1600.47
    },
    {
      "FlightNumber": "FR2203",
      "DateTime": "2019-12-04 09:30:00",
      "Airline": "Ryanair",
      "Destination": "Warsaw Modlin",
      "IATA": "WMI",
      "Lat": 52.4511,
      "Lon": 20.6518,
      "Country": "Poland",
      "Continent": "Europe",
      "Distance": 1489.67,
      "Flight_Type": "ShortHaul",
      "Aircraft_Code": "B738",
      "Aircraft_Name": "BOEING 737-800",
      "Emissions_Factor": 11.5,
      "Emissions": 17131.25
    },
    {
      "FlightNumber": "KL1546",
      "DateTime": "2019-12-04 10:00:00",
      "Airline": "KLM",
      "Destination": "Amsterdam",
      "IATA": "AMS",
      "Lat": 52.3086,
      "Lon": 4.76389,
      "Country": "Netherlands",
      "Continent": "Europe",
      "Distance": 462.46,
      "Flight_Type": "ShortHaul",
      "Aircraft_Code": "E170",
      "Aircraft_Name": "EMB ERJ170 (170-100)",
      "Emissions_Factor": 8.9,
      "Emissions": 4115.93
    },
    {
      "FlightNumber": "BA1347",
      "DateTime": "2019-12-04 11:10:00",
      "Airline": "British Airways",
      "Destination": "London Heathrow",
      "IATA": "LHR",
      "Lat": 51.4706,
      "Lon": -0.46194,
      "Country": "United Kingdom",
      "Continent": "Europe",
      "Distance": 278.33,
      "Flight_Type": "Domestic",
      "Aircraft_Code": "A319",
      "Aircraft_Name": "AIRBUS A319",
      "Emissions_Factor": 14.9,
      "Emissions": 4147.09
    },
    {
      "FlightNumber": "BE732",
      "DateTime": "2019-12-04 11:20:00",
      "Airline": "flybe",
      "Destination": "Belfast City",
      "IATA": "BHD",
      "Lat": 54.6181,
      "Lon": -5.8725,
      "Country": "United Kingdom",
      "Continent": "Europe",
      "Distance": 286.13,
      "Flight_Type": "Domestic",
      "Aircraft_Code": "DH8D",
      "Aircraft_Name": "BOMBARDIER DASH 8 Q400",
      "Emissions_Factor": 7.1,
      "Emissions": 2031.51
    },
    {
      "FlightNumber": "BE7604",
      "DateTime": "2019-12-04 13:10:00",
      "Airline": "flybe",
      "Destination": "Southampton",
      "IATA": "SOU",
      "Lat": 50.9503,
      "Lon": -1.3568,
      "Country": "United Kingdom",
      "Continent": "Europe",
      "Distance": 324.85,
      "Flight_Type": "Domestic",
      "Aircraft_Code": "JS41",
      "Aircraft_Name": "",
      "Emissions_Factor": 11.1,
      "Emissions": 3605.87
    },
    {
      "FlightNumber": "BE736",
      "DateTime": "2019-12-04 13:35:00",
      "Airline": "flybe",
      "Destination": "Belfast City",
      "IATA": "BHD",
      "Lat": 54.6181,
      "Lon": -5.8725,
      "Country": "United Kingdom",
      "Continent": "Europe",
      "Distance": 286.13,
      "Flight_Type": "Domestic",
      "Aircraft_Code": "DH8D",
      "Aircraft_Name": "BOMBARDIER DASH 8 Q400",
      "Emissions_Factor": 7.1,
      "Emissions": 2031.51
    },
    {
      "FlightNumber": "FR2446",
      "DateTime": "2019-12-04 15:20:00",
      "Airline": "Ryanair",
      "Destination": "Malaga",
      "IATA": "AGP",
      "Lat": 36.6749,
      "Lon": -4.49911,
      "Country": "Spain",
      "Continent": "Europe",
      "Distance": 1924.02,
      "Flight_Type": "ShortHaul",
      "Aircraft_Code": "B738",
      "Aircraft_Name": "BOEING 737-800",
      "Emissions_Factor": 11.5,
      "Emissions": 22126.24
    },
    {
      "FlightNumber": "LS205",
      "DateTime": "2019-12-04 16:30:00",
      "Airline": "Jet2.com",
      "Destination": "Amsterdam",
      "IATA": "AMS",
      "Lat": 52.3086,
      "Lon": 4.76389,
      "Country": "Netherlands",
      "Continent": "Europe",
      "Distance": 462.46,
      "Flight_Type": "ShortHaul",
      "Aircraft_Code": "B733",
      "Aircraft_Name": "BOEING 737-300",
      "Emissions_Factor": 11.6,
      "Emissions": 5364.58
    },
    {
      "FlightNumber": "BE738",
      "DateTime": "2019-12-04 16:55:00",
      "Airline": "flybe",
      "Destination": "Belfast City",
      "IATA": "BHD",
      "Lat": 54.6181,
      "Lon": -5.8725,
      "Country": "United Kingdom",
      "Continent": "Europe",
      "Distance": 286.13,
      "Flight_Type": "Domestic",
      "Aircraft_Code": "DH8D",
      "Aircraft_Name": "BOMBARDIER DASH 8 Q400",
      "Emissions_Factor": 7.1,
      "Emissions": 2031.51
    },
    {
      "FlightNumber": "BE7606",
      "DateTime": "2019-12-04 17:10:00",
      "Airline": "flybe",
      "Destination": "Southampton",
      "IATA": "SOU",
      "Lat": 50.9503,
      "Lon": -1.3568,
      "Country": "United Kingdom",
      "Continent": "Europe",
      "Distance": 324.85,
      "Flight_Type": "Domestic",
      "Aircraft_Code": "JS41",
      "Aircraft_Name": "",
      "Emissions_Factor": 11.1,
      "Emissions": 3605.87
    },
    {
      "FlightNumber": "KL1550",
      "DateTime": "2019-12-04 17:15:00",
      "Airline": "KLM",
      "Destination": "Amsterdam",
      "IATA": "AMS",
      "Lat": 52.3086,
      "Lon": 4.76389,
      "Country": "Netherlands",
      "Continent": "Europe",
      "Distance": 462.46,
      "Flight_Type": "ShortHaul",
      "Aircraft_Code": "E170",
      "Aircraft_Name": "EMB ERJ170 (170-100)",
      "Emissions_Factor": 8.9,
      "Emissions": 4115.93
    },
    {
      "FlightNumber": "FR9079",
      "DateTime": "2019-12-04 18:05:00",
      "Airline": "Ryanair",
      "Destination": "Alicante",
      "IATA": "ALC",
      "Lat": 38.2822,
      "Lon": -0.55816,
      "Country": "Spain",
      "Continent": "Europe",
      "Distance": 1734.86,
      "Flight_Type": "ShortHaul",
      "Aircraft_Code": "B738",
      "Aircraft_Name": "BOEING 737-800",
      "Emissions_Factor": 11.5,
      "Emissions": 19950.88
    },
    {
      "FlightNumber": "EI3395",
      "DateTime": "2019-12-04 19:00:00",
      "Airline": "Aer Lingus",
      "Destination": "Dublin",
      "IATA": "DUB",
      "Lat": 53.4213,
      "Lon": -6.27007,
      "Country": "Ireland",
      "Continent": "Europe",
      "Distance": 307.78,
      "Flight_Type": "ShortHaul",
      "Aircraft_Code": "AT72",
      "Aircraft_Name": "ATR72 200/500/600",
      "Emissions_Factor": 5.2,
      "Emissions": 1600.47
    },
    {
      "FlightNumber": "FR157",
      "DateTime": "2019-12-04 19:25:00",
      "Airline": "Ryanair",
      "Destination": "Dublin",
      "IATA": "DUB",
      "Lat": 53.4213,
      "Lon": -6.27007,
      "Country": "Ireland",
      "Continent": "Europe",
      "Distance": 307.78,
      "Flight_Type": "ShortHaul",
      "Aircraft_Code": "B738",
      "Aircraft_Name": "BOEING 737-800",
      "Emissions_Factor": 11.5,
      "Emissions": 3539.5
    },
    {
      "FlightNumber": "BE740",
      "DateTime": "2019-12-04 20:00:00",
      "Airline": "flybe",
      "Destination": "Belfast City",
      "IATA": "BHD",
      "Lat": 54.6181,
      "Lon": -5.8725,
      "Country": "United Kingdom",
      "Continent": "Europe",
      "Distance": 286.13,
      "Flight_Type": "Domestic",
      "Aircraft_Code": "DH8D",
      "Aircraft_Name": "BOMBARDIER DASH 8 Q400",
      "Emissions_Factor": 7.1,
      "Emissions": 2031.51
    }
  ]
}