{
  "Date": "2019-12-15",
  "Airport": {
    "Name": "Leeds Bradford",
    "IATA": "LBA"
  },
  "Flights": [
    {
      "FlightNumber": "EI3397",
      "DateTime": "2019-12-15 15:20:00",
      "Airline": "Aer Lingus",
      "Destination": "Dublin",
      "IATA": "DUB",
      "Lat": 53.4213,
      "Lon": -6.27007,
      "Country": "Ireland",
      "Continent": "Europe",
      "Distance": 307.78,
      "Flight_Type": "ShortHaul",
      "Aircraft_Code": "",
      "Aircraft_Name": "",
      "Emissions_Factor": 11.8,
      "Emissions": 3631.84
    },
    {
      "FlightNumber": "BE7606",
      "DateTime": "2019-12-15 16:10:00",
      "Airline": "flybe",
      "Destination": "Southampton",
      "IATA": "SOU",
      "Lat": 50.9503,
      "Lon": -1.3568,
      "Country": "United Kingdom",
      "Continent": "Europe",
      "Distance": 324.85,
      "Flight_Type": "Domestic",
      "Aircraft_Code": "JS41",
      "Aircraft_Name": "",
      "Emissions_Factor": 11.1,
      "Emissions": 3605.87
    },
    {
      "FlightNumber": "FR2203",
      "DateTime": "2019-12-15 16:45:00",
      "Airline": "Ryanair",
      "Destination": "Warsaw Modlin",
      "IATA": "WMI",
      "Lat": 52.4511,
      "Lon": 20.6518,
      "Country": "Poland",
      "Continent": "Europe",
      "Distance": 1489.67,
      "Flight_Type": "ShortHaul",
      "Aircraft_Code": "B738",
      "Aircraft_Name": "BOEING 737-800",
      "Emissions_Factor": 11.5,
      "Emissions": 17131.25
    },
    {
      "FlightNumber": "BE738",
      "DateTime": "2019-12-15 17:05:00",
      "Airline": "flybe",
      "Destination": "Belfast City",
      "IATA": "BHD",
      "Lat": 54.6181,
      "Lon": -5.8725,
      "Country": "United Kingdom",
      "Continent": "Europe",
      "Distance": 286.13,
      "Flight_Type": "Domestic",
      "Aircraft_Code": "DH8D",
      "Aircraft_Name": "BOMBARDIER DASH 8 Q400",
      "Emissions_Factor": 7.1,
      "Emissions": 2031.51
    },
    {
      "FlightNumber": "KL1550",
      "DateTime": "2019-12-15 17:15:00",
      "Airline": "KLM",
      "Destination": "Amsterdam",
      "IATA": "AMS",
      "Lat": 52.3086,
      "Lon": 4.76389,
      "Country": "Netherlands",
      "Continent": "Europe",
      "Distance": 462.46,
      "Flight_Type": "ShortHaul",
      "Aircraft_Code": "E170",
      "Aircraft_Name": "EMB ERJ170 (170-100)",
      "Emissions_Factor": 8.9,
      "Emissions": 4115.93
    },
    {
      "FlightNumber": "LS315",
      "DateTime": "2019-12-15 17:40:00",
      "Airline": "Jet2.com",
      "Destination": "Paris Cdg",
      "IATA": "CDG",
      "Lat": 49.0128,
      "Lon": 2.55,
      "Country": "France",
      "Continent": "Europe",
      "Distance": 613.25,
      "Flight_Type": "ShortHaul",
      "Aircraft_Code": "B733",
      "Aircraft_Name": "BOEING 737-300",
      "Emissions_Factor": 11.6,
      "Emissions": 7113.65
    },
    {
      "FlightNumber": "FR9079",
      "DateTime": "2019-12-15 17:55:00",
      "Airline": "Ryanair",
      "Destination": "Alicante",
      "IATA": "ALC",
      "Lat": 38.2822,
      "Lon": -0.55816,
      "Country": "Spain",
      "Continent": "Europe",
      "Distance": 1734.86,
      "Flight_Type": "ShortHaul",
      "Aircraft_Code": "B738",
      "Aircraft_Name": "BOEING 737-800",
      "Emissions_Factor": 11.5,
      "Emissions": 19950.88
    },
    {
      "FlightNumber": "LS205",
      "DateTime": "2019-12-15 18:00:00",
      "Airline": "Jet2.com",
      "Destination": "Amsterdam",
      "IATA": "AMS",
      "Lat": 52.3086,
      "Lon": 4.76389,
      "Country": "Netherlands",
      "Continent": "Europe",
      "Distance": 462.46,
      "Flight_Type": "ShortHaul",
      "Aircraft_Code": "B733",
      "Aircraft_Name": "BOEING 737-300",
      "Emissions_Factor": 11.6,
      "Emissions": 5364.58
    },
    {
      "FlightNumber": "FR2048",
      "DateTime": "2019-12-15 18:35:00",
      "Airline": "Ryanair",
      "Destination": "Arrecife",
      "IATA": "ACE",
      "Lat": 28.9455,
      "Lon": -13.6052,
      "Country": "Spain",
      "Continent": "Europe",
      "Distance": 2935.41,
      "Flight_Type": "ShortHaul",
      "Aircraft_Code": "B738",
      "Aircraft_Name": "BOEING 737-800",
      "Emissions_Factor": 11.5,
      "Emissions": 33757.2
    },
    {
      "FlightNumber": "EI3395",
      "DateTime": "2019-12-15 19:00:00",
      "Airline": "Aer Lingus",
      "Destination": "Dublin",
      "IATA": "DUB",
      "Lat": 53.4213,
      "Lon": -6.27007,
      "Country": "Ireland",
      "Continent": "Europe",
      "Distance": 307.78,
      "Flight_Type": "ShortHaul",
      "Aircraft_Code": "AT72",
      "Aircraft_Name": "ATR72 200/500/600",
      "Emissions_Factor": 5.2,
      "Emissions": 1600.47
    },
    {
      "FlightNumber": "FR157",
      "DateTime": "2019-12-15 19:25:00",
      "Airline": "Ryanair",
      "Destination": "Dublin",
      "IATA": "DUB",
      "Lat": 53.4213,
      "Lon": -6.27007,
      "Country": "Ireland",
      "Continent": "Europe",
      "Distance": 307.78,
      "Flight_Type": "ShortHaul",
      "Aircraft_Code": "B738",
      "Aircraft_Name": "BOEING 737-800",
      "Emissions_Factor": 11.5,
      "Emissions": 3539.5
    },
    {
      "FlightNumber": "BE740",
      "DateTime": "2019-12-15 20:00:00",
      "Airline": "flybe",
      "Destination": "Belfast City",
      "IATA": "BHD",
      "Lat": 54.6181,
      "Lon": -5.8725,
      "Country": "United Kingdom",
      "Continent": "Europe",
      "Distance": 286.13,
      "Flight_Type": "Domestic",
      "Aircraft_Code": "DH8D",
      "Aircraft_Name": "BOMBARDIER DASH 8 Q400",
      "Emissions_Factor": 7.1,
      "Emissions": 2031.51
    }
  ]
}