{
  "Date": "2019-12-31",
  "Airport": {
    "Name": "Leeds Bradford",
    "IATA": "LBA"
  },
  "Flights": [
    {
      "FlightNumber": "FR2492",
      "DateTime": "2019-12-31 06:00:00",
      "Airline": "Ryanair",
      "Destination": "Tenerife South",
      "IATA": "TFS",
      "Lat": 28.0445,
      "Lon": -16.5725,
      "Country": "Spain",
      "Continent": "Europe",
      "Distance": 3117.78,
      "Flight_Type": "ShortHaul",
      "Aircraft_Code": "B738",
      "Aircraft_Name": "BOEING 737-800",
      "Emissions_Factor": 11.5,
      "Emissions": 35854.44
    },
    {
      "FlightNumber": "KL1540",
      "DateTime": "2019-12-31 06:10:00",
      "Airline": "KLM",
      "Destination": "Amsterdam",
      "IATA": "AMS",
      "Lat": 52.3086,
      "Lon": 4.76389,
      "Country": "Netherlands",
      "Continent": "Europe",
      "Distance": 462.46,
      "Flight_Type": "ShortHaul",
      "Aircraft_Code": "E190",
      "Aircraft_Name": "EMBRAER ERJ190",
      "Emissions_Factor": 10.2,
      "Emissions": 4717.13
    },
    {
      "FlightNumber": "FR153",
      "DateTime": "2019-12-31 06:30:00",
      "Airline": "Ryanair",
      "Destination": "Dublin",
      "IATA": "DUB",
      "Lat": 53.4213,
      "Lon": -6.27007,
      "Country": "Ireland",
      "Continent": "Europe",
      "Distance": 307.78,
      "Flight_Type": "ShortHaul",
      "Aircraft_Code": "B738",
      "Aircraft_Name": "BOEING 737-800",
      "Emissions_Factor": 11.5,
      "Emissions": 3539.5
    },
    {
      "FlightNumber": "LS223",
      "DateTime": "2019-12-31 08:20:00",
      "Airline": "Jet2.com",
      "Destination": "Tenerife South",
      "IATA": "TFS",
      "Lat": 28.0445,
      "Lon": -16.5725,
      "Country": "Spain",
      "Continent": "Europe",
      "Distance": 3117.78,
      "Flight_Type": "ShortHaul",
      "Aircraft_Code": "B752",
      "Aircraft_Name": "BOEING 757-200",
      "Emissions_Factor": 14.7,
      "Emissions": 45831.33
    },
    {
      "FlightNumber": "EI3391",
      "DateTime": "2019-12-31 08:25:00",
      "Airline": "Aer Lingus",
      "Destination": "Dublin",
      "IATA": "DUB",
      "Lat": 53.4213,
      "Lon": -6.27007,
      "Country": "Ireland",
      "Continent": "Europe",
      "Distance": 307.78,
      "Flight_Type": "ShortHaul",
      "Aircraft_Code": "AT72",
      "Aircraft_Name": "ATR72 200/500/600",
      "Emissions_Factor": 5.2,
      "Emissions": 1600.47
    },
    {
      "FlightNumber": "FR2332",
      "DateTime": "2019-12-31 08:40:00",
      "Airline": "Ryanair",
      "Destination": "Krakow",
      "IATA": "KRK",
      "Lat": 50.0777,
      "Lon": 19.7848,
      "Country": "Poland",
      "Continent": "Europe",
      "Distance": 1521.58,
      "Flight_Type": "ShortHaul",
      "Aircraft_Code": "B738",
      "Aircraft_Name": "BOEING 737-800",
      "Emissions_Factor": 11.5,
      "Emissions": 17498.21
    },
    {
      "FlightNumber": "LS249",
      "DateTime": "2019-12-31 09:15:00",
      "Airline": "Jet2.com",
      "Destination": "Fuerteventura",
      "IATA": "FUE",
      "Lat": 28.4527,
      "Lon": -13.8638,
      "Country": "Spain",
      "Continent": "Europe",
      "Distance": 2995.03,
      "Flight_Type": "ShortHaul",
      "Aircraft_Code": "B752",
      "Aircraft_Name": "BOEING 757-200",
      "Emissions_Factor": 14.7,
      "Emissions": 44026.9
    },
    {
      "FlightNumber": "FR368",
      "DateTime": "2019-12-31 09:30:00",
      "Airline": "Ryanair",
      "Destination": "Wroclaw",
      "IATA": "WRO",
      "Lat": 51.1027,
      "Lon": 16.8858,
      "Country": "Poland",
      "Continent": "Europe",
      "Distance": 1288.83,
      "Flight_Type": "ShortHaul",
      "Aircraft_Code": "B738",
      "Aircraft_Name": "BOEING 737-800",
      "Emissions_Factor": 11.5,
      "Emissions": 14821.57
    },
    {
      "FlightNumber": "KL1546",
      "DateTime": "2019-12-31 10:00:00",
      "Airline": "KLM",
      "Destination": "Amsterdam",
      "IATA": "AMS",
      "Lat": 52.3086,
      "Lon": 4.76389,
      "Country": "Netherlands",
      "Continent": "Europe",
      "Distance": 462.46,
      "Flight_Type": "ShortHaul",
      "Aircraft_Code": "E190",
      "Aircraft_Name": "EMBRAER ERJ190",
      "Emissions_Factor": 10.2,
      "Emissions": 4717.13
    },
    {
      "FlightNumber": "BE732",
      "DateTime": "2019-12-31 10:20:00",
      "Airline": "flybe",
      "Destination": "Belfast City",
      "IATA": "BHD",
      "Lat": 54.6181,
      "Lon": -5.8725,
      "Country": "United Kingdom",
      "Continent": "Europe",
      "Distance": 286.13,
      "Flight_Type": "Domestic",
      "Aircraft_Code": "DH8D",
      "Aircraft_Name": "BOMBARDIER DASH 8 Q400",
      "Emissions_Factor": 7.1,
      "Emissions": 2031.51
    },
    {
      "FlightNumber": "BA1347",
      "DateTime": "2019-12-31 11:10:00",
      "Airline": "British Airways",
      "Destination": "London Heathrow",
      "IATA": "LHR",
      "Lat": 51.4706,
      "Lon": -0.46194,
      "Country": "United Kingdom",
      "Continent": "Europe",
      "Distance": 278.33,
      "Flight_Type": "Domestic",
      "Aircraft_Code": "A319",
      "Aircraft_Name": "AIRBUS A319",
      "Emissions_Factor": 14.9,
      "Emissions": 4147.09
    },
    {
      "FlightNumber": "BE7604",
      "DateTime": "2019-12-31 13:10:00",
      "Airline": "flybe",
      "Destination": "Southampton",
      "IATA": "SOU",
      "Lat": 50.9503,
      "Lon": -1.3568,
      "Country": "United Kingdom",
      "Continent": "Europe",
      "Distance": 324.85,
      "Flight_Type": "Domestic",
      "Aircraft_Code": "JS41",
      "Aircraft_Name": "",
      "Emissions_Factor": 11.1,
      "Emissions": 3605.87
    },
    {
      "FlightNumber": "BE736",
      "DateTime": "2019-12-31 13:35:00",
      "Airline": "flybe",
      "Destination": "Belfast City",
      "IATA": "BHD",
      "Lat": 54.6181,
      "Lon": -5.8725,
      "Country": "United Kingdom",
      "Continent": "Europe",
      "Distance": 286.13,
      "Flight_Type": "Domestic",
      "Aircraft_Code": "DH8D",
      "Aircraft_Name": "BOMBARDIER DASH 8 Q400",
      "Emissions_Factor": 7.1,
      "Emissions": 2031.51
    },
    {
      "FlightNumber": "EI3395",
      "DateTime": "2019-12-31 15:35:00",
      "Airline": "Aer Lingus",
      "Destination": "Dublin",
      "IATA": "DUB",
      "Lat": 53.4213,
      "Lon": -6.27007,
      "Country": "Ireland",
      "Continent": "Europe",
      "Distance": 307.78,
      "Flight_Type": "ShortHaul",
      "Aircraft_Code": "AT72",
      "Aircraft_Name": "ATR72 200/500/600",
      "Emissions_Factor": 5.2,
      "Emissions": 1600.47
    },
    {
      "FlightNumber": "FR618",
      "DateTime": "2019-12-31 16:50:00",
      "Airline": "Ryanair",
      "Destination": "Warsaw Modlin",
      "IATA": "WMI",
      "Lat": 52.4511,
      "Lon": 20.6518,
      "Country": "Poland",
      "Continent": "Europe",
      "Distance": 1489.67,
      "Flight_Type": "ShortHaul",
      "Aircraft_Code": "B738",
      "Aircraft_Name": "BOEING 737-800",
      "Emissions_Factor": 11.5,
      "Emissions": 17131.25
    },
    {
      "FlightNumber": "KL1550",
      "DateTime": "2019-12-31 17:15:00",
      "Airline": "KLM",
      "Destination": "Amsterdam",
      "IATA": "AMS",
      "Lat": 52.3086,
      "Lon": 4.76389,
      "Country": "Netherlands",
      "Continent": "Europe",
      "Distance": 462.46,
      "Flight_Type": "ShortHaul",
      "Aircraft_Code": "E170",
      "Aircraft_Name": "EMB ERJ170 (170-100)",
      "Emissions_Factor": 8.9,
      "Emissions": 4115.93
    },
    {
      "FlightNumber": "FR157",
      "DateTime": "2019-12-31 17:25:00",
      "Airline": "Ryanair",
      "Destination": "Dublin",
      "IATA": "DUB",
      "Lat": 53.4213,
      "Lon": -6.27007,
      "Country": "Ireland",
      "Continent": "Europe",
      "Distance": 307.78,
      "Flight_Type": "ShortHaul",
      "Aircraft_Code": "B738",
      "Aircraft_Name": "BOEING 737-800",
      "Emissions_Factor": 11.5,
      "Emissions": 3539.5
    }
  ]
}